{
"type": "FeatureCollection",
"name": "hospitals",
"crs": { "type": "name", "properties": { "name": "urn:ogc:def:crs:OGC:1.3:CRS84" } },
"features": [
{ "type": "Feature", "properties": { "objectid": 9, "name": "Verdugo Hills Hospital", "city": "Glendale" }, "geometry": { "type": "Point", "coordinates": [ -118.216023506165016, 34.204529567001991 ] } },
{ "type": "Feature", "properties": { "objectid": 11, "name": "Barlow Respiratory Hospital - Los Angeles (Main Campus)", "city": "Los Angeles" }, "geometry": { "type": "Point", "coordinates": [ -118.248311626626787, 34.07569267722716 ] } },
{ "type": "Feature", "properties": { "objectid": 20, "name": "Glendora Community Hospital", "city": "Glendora" }, "geometry": { "type": "Point", "coordinates": [ -117.865074657506185, 34.127307266919942 ] } },
{ "type": "Feature", "properties": { "objectid": 25, "name": "Providence Little Company Of Mary Medical Center - Torrance", "city": "Torrance" }, "geometry": { "type": "Point", "coordinates": [ -118.357113056219177, 33.838634217571261 ] } },
{ "type": "Feature", "properties": { "objectid": 35, "name": "Glendale Memorial Hospital And Health Center", "city": "Glendale" }, "geometry": { "type": "Point", "coordinates": [ -118.257443036499339, 34.128058406798964 ] } },
{ "type": "Feature", "properties": { "objectid": 40, "name": "Cedars-Sinai Medical Center", "city": "Los Angeles" }, "geometry": { "type": "Point", "coordinates": [ -118.381038405990239, 34.076219366351701 ] } },
{ "type": "Feature", "properties": { "objectid": 41, "name": "Cedars-Sinai Medical Center", "city": "Los Angeles" }, "geometry": { "type": "Point", "coordinates": [ -118.381038405990239, 34.076219366351701 ] } },
{ "type": "Feature", "properties": { "objectid": 42, "name": "Cedars-Sinai Medical Center", "city": "Los Angeles" }, "geometry": { "type": "Point", "coordinates": [ -118.381038405990239, 34.076219366351701 ] } },
{ "type": "Feature", "properties": { "objectid": 43, "name": "Cedars-Sinai Medical Center", "city": "Los Angeles" }, "geometry": { "type": "Point", "coordinates": [ -118.381038405990239, 34.076219366351701 ] } },
{ "type": "Feature", "properties": { "objectid": 44, "name": "Cedars-Sinai Medical Center", "city": "Los Angeles" }, "geometry": { "type": "Point", "coordinates": [ -118.381038405990239, 34.076219366351701 ] } },
{ "type": "Feature", "properties": { "objectid": 45, "name": "Cedars-Sinai Medical Center", "city": "Los Angeles" }, "geometry": { "type": "Point", "coordinates": [ -118.381038405990239, 34.076219366351701 ] } },
{ "type": "Feature", "properties": { "objectid": 46, "name": "Cedars-Sinai Medical Center", "city": "Los Angeles" }, "geometry": { "type": "Point", "coordinates": [ -118.381038405990239, 34.076219366351701 ] } },
{ "type": "Feature", "properties": { "objectid": 47, "name": "Cedars-Sinai Medical Center", "city": "Los Angeles" }, "geometry": { "type": "Point", "coordinates": [ -118.381038405990239, 34.076219366351701 ] } },
{ "type": "Feature", "properties": { "objectid": 48, "name": "Cedars-Sinai Medical Center", "city": "Los Angeles" }, "geometry": { "type": "Point", "coordinates": [ -118.381038405990239, 34.076219366351701 ] } },
{ "type": "Feature", "properties": { "objectid": 50, "name": "Citrus Valley Health Partners - Citrus Valley Medical Center - Intercommunity Campus", "city": "Covina" }, "geometry": { "type": "Point", "coordinates": [ -117.893412256815438, 34.0880210367987 ] } },
{ "type": "Feature", "properties": { "objectid": 51, "name": "Citrus Valley Health Partners - Citrus Valley Medical Center - Intercommunity Campus", "city": "Covina" }, "geometry": { "type": "Point", "coordinates": [ -117.893412256815438, 34.0880210367987 ] } },
{ "type": "Feature", "properties": { "objectid": 54, "name": "Greater El Monte Community Hospital", "city": "South El Monte" }, "geometry": { "type": "Point", "coordinates": [ -118.043435956515623, 34.04776595700713 ] } },
{ "type": "Feature", "properties": { "objectid": 65, "name": "California Hospital Medical Center", "city": "Los Angeles" }, "geometry": { "type": "Point", "coordinates": [ -118.265746295853631, 34.037364326504751 ] } },
{ "type": "Feature", "properties": { "objectid": 66, "name": "California Hospital Medical Center", "city": "Los Angeles" }, "geometry": { "type": "Point", "coordinates": [ -118.265746295853631, 34.037364326504751 ] } },
{ "type": "Feature", "properties": { "objectid": 67, "name": "California Hospital Medical Center", "city": "Los Angeles" }, "geometry": { "type": "Point", "coordinates": [ -118.265746295853631, 34.037364326504751 ] } },
{ "type": "Feature", "properties": { "objectid": 68, "name": "California Hospital Medical Center", "city": "Los Angeles" }, "geometry": { "type": "Point", "coordinates": [ -118.265746295853631, 34.037364326504751 ] } },
{ "type": "Feature", "properties": { "objectid": 69, "name": "California Hospital Medical Center", "city": "Los Angeles" }, "geometry": { "type": "Point", "coordinates": [ -118.265746295853631, 34.037364326504751 ] } },
{ "type": "Feature", "properties": { "objectid": 70, "name": "California Hospital Medical Center", "city": "Los Angeles" }, "geometry": { "type": "Point", "coordinates": [ -118.265746295853631, 34.037364326504751 ] } },
{ "type": "Feature", "properties": { "objectid": 71, "name": "California Hospital Medical Center", "city": "Los Angeles" }, "geometry": { "type": "Point", "coordinates": [ -118.265746295853631, 34.037364326504751 ] } },
{ "type": "Feature", "properties": { "objectid": 79, "name": "Children's Hospital Los Angeles", "city": "Los Angeles" }, "geometry": { "type": "Point", "coordinates": [ -118.291012696636002, 34.098018796976859 ] } },
{ "type": "Feature", "properties": { "objectid": 80, "name": "Children's Hospital Los Angeles", "city": "Los Angeles" }, "geometry": { "type": "Point", "coordinates": [ -118.291012696636002, 34.098018796976859 ] } },
{ "type": "Feature", "properties": { "objectid": 81, "name": "Children's Hospital Los Angeles", "city": "Los Angeles" }, "geometry": { "type": "Point", "coordinates": [ -118.291012696636002, 34.098018796976859 ] } },
{ "type": "Feature", "properties": { "objectid": 90, "name": "Long Beach Memorial Medical Center", "city": "Long Beach" }, "geometry": { "type": "Point", "coordinates": [ -118.186743556181412, 33.808107267285038 ] } },
{ "type": "Feature", "properties": { "objectid": 94, "name": "Good Samaritan Hospital", "city": "Los Angeles" }, "geometry": { "type": "Point", "coordinates": [ -118.265054285990473, 34.054463856439071 ] } },
{ "type": "Feature", "properties": { "objectid": 165, "name": "Barlow Respiratory Hospital At Presbyterian Intercommunity Hospital", "city": "Whittier" }, "geometry": { "type": "Point", "coordinates": [ -118.049359856516901, 33.969793577096794 ] } },
{ "type": "Feature", "properties": { "objectid": 177, "name": "Providence Little Company Of Mary Hospital - San Pedro", "city": "San Pedro" }, "geometry": { "type": "Point", "coordinates": [ -118.3050431562868, 33.738361467332105 ] } },
{ "type": "Feature", "properties": { "objectid": 179, "name": "Barlow Hospital At Valley Presbyterian Hospital", "city": "Van Nuys" }, "geometry": { "type": "Point", "coordinates": [ -118.4627240657816, 34.194279776885651 ] } },
{ "type": "Feature", "properties": { "objectid": 182, "name": "Pacifica Hospital Of The Valley", "city": "Sun Valley" }, "geometry": { "type": "Point", "coordinates": [ -118.396203576360236, 34.240153446065726 ] } },
{ "type": "Feature", "properties": { "objectid": 185, "name": "Los Angeles Metropolitan Medical Center", "city": "Los Angeles" }, "geometry": { "type": "Point", "coordinates": [ -118.309249856245501, 34.035447766900248 ] } },
{ "type": "Feature", "properties": { "objectid": 232, "name": "PIH Health Hospital - Whittier", "city": "Whittier" }, "geometry": { "type": "Point", "coordinates": [ -118.049255056795815, 33.96979426721785 ] } },
{ "type": "Feature", "properties": { "objectid": 242, "name": "Providence St. John's Health Center", "city": "Santa Monica" }, "geometry": { "type": "Point", "coordinates": [ -118.479344095728166, 34.030795346374738 ] } },
{ "type": "Feature", "properties": { "objectid": 247, "name": "Mission Community Hospital", "city": "Panorama City" }, "geometry": { "type": "Point", "coordinates": [ -118.456548755824599, 34.220425766775278 ] } },
{ "type": "Feature", "properties": { "objectid": 255, "name": "Valley Presbyterian Hospital", "city": "Van Nuys" }, "geometry": { "type": "Point", "coordinates": [ -118.463054955625694, 34.194809826275275 ] } },
{ "type": "Feature", "properties": { "objectid": 266, "name": "Pomona Valley Hospital Medical Center", "city": "Pomona" }, "geometry": { "type": "Point", "coordinates": [ -117.751497657401131, 34.077007667339174 ] } },
{ "type": "Feature", "properties": { "objectid": 288, "name": "Lakewood Regional Medical Center", "city": "Lakewood" }, "geometry": { "type": "Point", "coordinates": [ -118.148691636362926, 33.859869567223974 ] } },
{ "type": "Feature", "properties": { "objectid": 302, "name": "Marina Del Rey Hospital", "city": "Marina Del Rey" }, "geometry": { "type": "Point", "coordinates": [ -118.439440786054817, 33.981961676952409 ] } },
{ "type": "Feature", "properties": { "objectid": 331, "name": "Kaiser Permanente - Woodland Hills Medical Center", "city": "Woodland Hills" }, "geometry": { "type": "Point", "coordinates": [ -118.589894926067089, 34.170434176525397 ] } },
{ "type": "Feature", "properties": { "objectid": 1060, "name": "St. Mary Medical Center - Long Beach", "city": "Long Beach" }, "geometry": { "type": "Point", "coordinates": [ -118.185954855877327, 33.779852367017654 ] } },
{ "type": "Feature", "properties": { "objectid": 1069, "name": "Veterans Administration - Long Beach Healthcare System", "city": "Long Beach" }, "geometry": { "type": "Point", "coordinates": [ -118.120129166465176, 33.776926767268321 ] } },
{ "type": "Feature", "properties": { "objectid": 1073, "name": "Veterans Administration Greater Los Angeles Healthcare System - West Los Angeles", "city": "Los Angeles" }, "geometry": { "type": "Point", "coordinates": [ -118.452529966376105, 34.052668276966571 ] } },
{ "type": "Feature", "properties": { "objectid": 1179, "name": "US Department of Veterans Affairs - Los Angeles Ambulatory Care Center", "city": "Los Angeles" }, "geometry": { "type": "Point", "coordinates": [ -118.238499956790662, 34.052049167027228 ] } },
{ "type": "Feature", "properties": { "objectid": 1207, "name": "Whittier Hospital Medical Center", "city": "Whittier" }, "geometry": { "type": "Point", "coordinates": [ -118.00342665697525, 33.950022567598801 ] } },
{ "type": "Feature", "properties": { "objectid": 1220, "name": "Antelope Valley Hospital", "city": "Lancaster" }, "geometry": { "type": "Point", "coordinates": [ -118.158160206821094, 34.688077875920797 ] } },
{ "type": "Feature", "properties": { "objectid": 1221, "name": "Antelope Valley Hospital", "city": "Lancaster" }, "geometry": { "type": "Point", "coordinates": [ -118.158160206821094, 34.688077875920797 ] } },
{ "type": "Feature", "properties": { "objectid": 1222, "name": "Antelope Valley Hospital", "city": "Lancaster" }, "geometry": { "type": "Point", "coordinates": [ -118.158160206821094, 34.688077875920797 ] } },
{ "type": "Feature", "properties": { "objectid": 1223, "name": "Antelope Valley Hospital", "city": "Lancaster" }, "geometry": { "type": "Point", "coordinates": [ -118.158160206821094, 34.688077875920797 ] } },
{ "type": "Feature", "properties": { "objectid": 1224, "name": "Antelope Valley Hospital", "city": "Lancaster" }, "geometry": { "type": "Point", "coordinates": [ -118.158160206821094, 34.688077875920797 ] } },
{ "type": "Feature", "properties": { "objectid": 1229, "name": "Providence Saint Joseph Medical Center", "city": "Burbank" }, "geometry": { "type": "Point", "coordinates": [ -118.328140006437891, 34.156922026848896 ] } },
{ "type": "Feature", "properties": { "objectid": 1238, "name": "Henry Mayo Newhall Memorial Hospital", "city": "Valencia" }, "geometry": { "type": "Point", "coordinates": [ -118.563134596344483, 34.421306365649649 ] } },
{ "type": "Feature", "properties": { "objectid": 1248, "name": "Community Hospital of Long Beach", "city": "Long Beach" }, "geometry": { "type": "Point", "coordinates": [ -118.145474646074945, 33.788290817536179 ] } },
{ "type": "Feature", "properties": { "objectid": 1250, "name": "Memorial Hospital Of Gardena", "city": "Gardena" }, "geometry": { "type": "Point", "coordinates": [ -118.294681965849676, 33.89295017733366 ] } },
{ "type": "Feature", "properties": { "objectid": 1251, "name": "West Covina Medical Center", "city": "West Covina" }, "geometry": { "type": "Point", "coordinates": [ -117.944873627104315, 34.071395516981383 ] } },
{ "type": "Feature", "properties": { "objectid": 1254, "name": "Catalina Island Medical Center", "city": "Avalon" }, "geometry": { "type": "Point", "coordinates": [ -118.330698505605753, 33.339185228092198 ] } },
{ "type": "Feature", "properties": { "objectid": 1258, "name": "Coast Plaza Doctors Hospital", "city": "Norwalk" }, "geometry": { "type": "Point", "coordinates": [ -118.09859364637569, 33.912439357324274 ] } },
{ "type": "Feature", "properties": { "objectid": 1261, "name": "East Los Angeles Doctors Hospital", "city": "Los Angeles" }, "geometry": { "type": "Point", "coordinates": [ -118.184546626328626, 34.023390907037381 ] } },
{ "type": "Feature", "properties": { "objectid": 1269, "name": "Huntington Memorial Hospital", "city": "Pasadena" }, "geometry": { "type": "Point", "coordinates": [ -118.152753056646461, 34.133638966625625 ] } },
{ "type": "Feature", "properties": { "objectid": 1275, "name": "Beverly Hospital", "city": "Montebello" }, "geometry": { "type": "Point", "coordinates": [ -118.100636257100902, 34.015015427402382 ] } },
{ "type": "Feature", "properties": { "objectid": 1276, "name": "Beverly Hospital", "city": "Montebello" }, "geometry": { "type": "Point", "coordinates": [ -118.100636257100902, 34.015015427402382 ] } },
{ "type": "Feature", "properties": { "objectid": 1277, "name": "Beverly Hospital", "city": "Montebello" }, "geometry": { "type": "Point", "coordinates": [ -118.100636257100902, 34.015015427402382 ] } },
{ "type": "Feature", "properties": { "objectid": 1278, "name": "Beverly Hospital", "city": "Montebello" }, "geometry": { "type": "Point", "coordinates": [ -118.100636257100902, 34.015015427402382 ] } },
{ "type": "Feature", "properties": { "objectid": 1279, "name": "Beverly Hospital", "city": "Montebello" }, "geometry": { "type": "Point", "coordinates": [ -118.100636257100902, 34.015015427402382 ] } },
{ "type": "Feature", "properties": { "objectid": 1284, "name": "Providence Holy Cross Medical Center", "city": "Mission Hills" }, "geometry": { "type": "Point", "coordinates": [ -118.460056106043155, 34.279950065935374 ] } },
{ "type": "Feature", "properties": { "objectid": 1286, "name": "Gardens Regional Hospital Medical Center", "city": "Hawaiian Gardens" }, "geometry": { "type": "Point", "coordinates": [ -118.079422346332166, 33.833547157131946 ] } },
{ "type": "Feature", "properties": { "objectid": 1288, "name": "West Hills Hospital and Medical Center", "city": "West Hills" }, "geometry": { "type": "Point", "coordinates": [ -118.628579435349977, 34.202698575997097 ] } },
{ "type": "Feature", "properties": { "objectid": 1290, "name": "Los Angeles Community Hospital", "city": "Los Angeles" }, "geometry": { "type": "Point", "coordinates": [ -118.186366056731615, 34.0191019666564 ] } },
{ "type": "Feature", "properties": { "objectid": 1293, "name": "Community Hospital Of Huntington Park", "city": "Huntington Park" }, "geometry": { "type": "Point", "coordinates": [ -118.224155456491872, 33.98962276689754 ] } },
{ "type": "Feature", "properties": { "objectid": 1299, "name": "Downey Regional Medical Center", "city": "Downey" }, "geometry": { "type": "Point", "coordinates": [ -118.130987656180679, 33.934306067172045 ] } },
{ "type": "Feature", "properties": { "objectid": 1301, "name": "Garfield Medical Center", "city": "Monterey Park" }, "geometry": { "type": "Point", "coordinates": [ -118.123804356091952, 34.067894666628831 ] } },
{ "type": "Feature", "properties": { "objectid": 1307, "name": "Torrance Memorial Medical Center", "city": "Torrance" }, "geometry": { "type": "Point", "coordinates": [ -118.34349455612562, 33.811915667118008 ] } },
{ "type": "Feature", "properties": { "objectid": 1313, "name": "Methodist Hospital Of Southern California", "city": "Arcadia" }, "geometry": { "type": "Point", "coordinates": [ -118.042151256968424, 34.134021667110275 ] } },
{ "type": "Feature", "properties": { "objectid": 1314, "name": "Kindred Hospital - San Gabriel Valley", "city": "West Covina" }, "geometry": { "type": "Point", "coordinates": [ -117.917246057240106, 34.08706796711293 ] } },
{ "type": "Feature", "properties": { "objectid": 1315, "name": "Los Angeles Orthopaedic Hospital", "city": "Los Angeles" }, "geometry": { "type": "Point", "coordinates": [ -118.273457256684395, 34.027913967350088 ] } },
{ "type": "Feature", "properties": { "objectid": 1349, "name": "Sherman Oaks Community Hospital", "city": "Sherman Oaks" }, "geometry": { "type": "Point", "coordinates": [ -118.44947605650988, 34.160279966442673 ] } },
{ "type": "Feature", "properties": { "objectid": 1352, "name": "Norwalk Community Hospital", "city": "Norwalk" }, "geometry": { "type": "Point", "coordinates": [ -118.064004956410159, 33.910791367423634 ] } },
{ "type": "Feature", "properties": { "objectid": 1353, "name": "USC Norris Comprehensive Cancer Center", "city": "Los Angeles" }, "geometry": { "type": "Point", "coordinates": [ -118.204839356658752, 34.061342566658567 ] } },
{ "type": "Feature", "properties": { "objectid": 1355, "name": "Shriners Hospitals For Children", "city": "Los Angeles" }, "geometry": { "type": "Point", "coordinates": [ -118.286430056036892, 34.067184066896417 ] } },
{ "type": "Feature", "properties": { "objectid": 1365, "name": "Hollywood Presbyterian Medical Center", "city": "Los Angeles" }, "geometry": { "type": "Point", "coordinates": [ -118.291071705879489, 34.096231396724896 ] } },
{ "type": "Feature", "properties": { "objectid": 1382, "name": "St. Francis Medical Center", "city": "Lynwood" }, "geometry": { "type": "Point", "coordinates": [ -118.203320556029482, 33.929491747569607 ] } },
{ "type": "Feature", "properties": { "objectid": 1393, "name": "Glendale Adventist Medical Center", "city": "Glendale" }, "geometry": { "type": "Point", "coordinates": [ -118.22978859626069, 34.15040072668409 ] } },
{ "type": "Feature", "properties": { "objectid": 1394, "name": "City of Hope National Medical Center", "city": "Duarte" }, "geometry": { "type": "Point", "coordinates": [ -117.970874746771656, 34.12981288654197 ] } },
{ "type": "Feature", "properties": { "objectid": 1405, "name": "White Memorial Medical Center", "city": "Los Angeles" }, "geometry": { "type": "Point", "coordinates": [ -118.21724535627456, 34.04925786673266 ] } },
{ "type": "Feature", "properties": { "objectid": 1406, "name": "Promise Hospital - Suburban Medical Center", "city": "Paramount" }, "geometry": { "type": "Point", "coordinates": [ -118.161945456782746, 33.884660767314415 ] } },
{ "type": "Feature", "properties": { "objectid": 1412, "name": "Centinela Hospital Medical Center", "city": "Inglewood" }, "geometry": { "type": "Point", "coordinates": [ -118.348257255891539, 33.950782667151977 ] } },
{ "type": "Feature", "properties": { "objectid": 1413, "name": "Centinela Hospital Medical Center", "city": "Inglewood" }, "geometry": { "type": "Point", "coordinates": [ -118.348257255891539, 33.950782667151977 ] } },
{ "type": "Feature", "properties": { "objectid": 1414, "name": "Centinela Hospital Medical Center", "city": "Inglewood" }, "geometry": { "type": "Point", "coordinates": [ -118.348257255891539, 33.950782667151977 ] } },
{ "type": "Feature", "properties": { "objectid": 1415, "name": "Centinela Hospital Medical Center", "city": "Inglewood" }, "geometry": { "type": "Point", "coordinates": [ -118.348257255891539, 33.950782667151977 ] } },
{ "type": "Feature", "properties": { "objectid": 1416, "name": "Centinela Hospital Medical Center", "city": "Inglewood" }, "geometry": { "type": "Point", "coordinates": [ -118.348257255891539, 33.950782667151977 ] } },
{ "type": "Feature", "properties": { "objectid": 1418, "name": "Providence Tarzana Medical Center", "city": "Tarzana" }, "geometry": { "type": "Point", "coordinates": [ -118.532272556078155, 34.170200526407164 ] } },
{ "type": "Feature", "properties": { "objectid": 1419, "name": "Alhambra Hospital Medical Center", "city": "Alhambra" }, "geometry": { "type": "Point", "coordinates": [ -118.14396863702126, 34.090200807295155 ] } },
{ "type": "Feature", "properties": { "objectid": 1424, "name": "Alhambra Hospital Medical Center", "city": "Alhambra" }, "geometry": { "type": "Point", "coordinates": [ -118.14396863702126, 34.090200807295155 ] } },
{ "type": "Feature", "properties": { "objectid": 1428, "name": "Olympia Medical Center", "city": "Los Angeles" }, "geometry": { "type": "Point", "coordinates": [ -118.360251956450469, 34.05714486698951 ] } },
{ "type": "Feature", "properties": { "objectid": 1433, "name": "Citrus Valley Health Partners - Citrus Valley Medical Center - Queen Of The Valley Campus", "city": "West Covina" }, "geometry": { "type": "Point", "coordinates": [ -117.944675757498999, 34.063247167560753 ] } },
{ "type": "Feature", "properties": { "objectid": 1441, "name": "San Gabriel Valley Medical Center", "city": "San Gabriel" }, "geometry": { "type": "Point", "coordinates": [ -118.10580045670963, 34.101221306482252 ] } },
{ "type": "Feature", "properties": { "objectid": 1442, "name": "Santa Monica - UCLA Medical Center", "city": "Santa Monica" }, "geometry": { "type": "Point", "coordinates": [ -118.486709555552267, 34.027179236521164 ] } },
{ "type": "Feature", "properties": { "objectid": 1448, "name": "Kaiser Permanente - South Bay Medical Center", "city": "Harbor City" }, "geometry": { "type": "Point", "coordinates": [ -118.295733385707635, 33.788815437570975 ] } },
{ "type": "Feature", "properties": { "objectid": 1451, "name": "Kaiser Permanente - West Los Angeles Medical Center", "city": "Los Angeles" }, "geometry": { "type": "Point", "coordinates": [ -118.374611796208058, 34.038642057167216 ] } },
{ "type": "Feature", "properties": { "objectid": 1453, "name": "Kaiser Permanente - Panorama City Medical Center", "city": "Panorama City" }, "geometry": { "type": "Point", "coordinates": [ -118.429999406101501, 34.218580346748645 ] } },
{ "type": "Feature", "properties": { "objectid": 1457, "name": "Kaiser Permanente - Los Angeles Medical Center", "city": "Los Angeles" }, "geometry": { "type": "Point", "coordinates": [ -118.295095026729783, 34.098532456591961 ] } },
{ "type": "Feature", "properties": { "objectid": 3776, "name": "Northridge Hospital Medical Center", "city": "Northridge" }, "geometry": { "type": "Point", "coordinates": [ -118.532994445710457, 34.220347386661985 ] } },
{ "type": "Feature", "properties": { "objectid": 3778, "name": "Northridge Hospital Medical Center", "city": "Northridge" }, "geometry": { "type": "Point", "coordinates": [ -118.532994445710457, 34.220347386661985 ] } },
{ "type": "Feature", "properties": { "objectid": 3779, "name": "Northridge Hospital Medical Center", "city": "Northridge" }, "geometry": { "type": "Point", "coordinates": [ -118.532994445710457, 34.220347386661985 ] } },
{ "type": "Feature", "properties": { "objectid": 24407, "name": "Encino Hospital Medical Center", "city": "Encino" }, "geometry": { "type": "Point", "coordinates": [ -118.486725855650889, 34.157183626681906 ] } },
{ "type": "Feature", "properties": { "objectid": 24408, "name": "Encino Hospital Medical Center", "city": "Encino" }, "geometry": { "type": "Point", "coordinates": [ -118.486725855650889, 34.157183626681906 ] } },
{ "type": "Feature", "properties": { "objectid": 24779, "name": "Pacific Alliance Medical Center", "city": "Los Angeles" }, "geometry": { "type": "Point", "coordinates": [ -118.23922368673405, 34.065038117194476 ] } },
{ "type": "Feature", "properties": { "objectid": 24800, "name": "Monterey Park Hospital", "city": "Monterey Park" }, "geometry": { "type": "Point", "coordinates": [ -118.138314656758311, 34.049412967133847 ] } },
{ "type": "Feature", "properties": { "objectid": 24808, "name": "Keck Medicine of USC", "city": "Los Angeles" }, "geometry": { "type": "Point", "coordinates": [ -118.201557056640951, 34.062049866522315 ] } },
{ "type": "Feature", "properties": { "objectid": 25167, "name": "Kindred Hospital - Los Angeles", "city": "Los Angeles" }, "geometry": { "type": "Point", "coordinates": [ -118.378479756340866, 33.989977666973765 ] } },
{ "type": "Feature", "properties": { "objectid": 25788, "name": "Promise Hospital of East Los Angeles", "city": "Los Angeles" }, "geometry": { "type": "Point", "coordinates": [ -118.212808746943765, 34.039659216736588 ] } },
{ "type": "Feature", "properties": { "objectid": 26252, "name": "Miller Children's Hospital", "city": "Long Beach" }, "geometry": { "type": "Point", "coordinates": [ -118.186743556181412, 33.808107267285038 ] } },
{ "type": "Feature", "properties": { "objectid": 26433, "name": "Covina Valley Community Hospital", "city": null }, "geometry": { "type": "Point", "coordinates": [ -117.917007357349661, 34.087231266796195 ] } },
{ "type": "Feature", "properties": { "objectid": 26522, "name": "Foothill Presbyterian Hospital", "city": "Glendora" }, "geometry": { "type": "Point", "coordinates": [ -117.871319457093719, 34.132884667119264 ] } },
{ "type": "Feature", "properties": { "objectid": 60988, "name": "Ronald Reagan UCLA Medical Center", "city": "Los Angeles" }, "geometry": { "type": "Point", "coordinates": [ -118.446313655816766, 34.066443266579761 ] } },
{ "type": "Feature", "properties": { "objectid": 60993, "name": "Palmdale Regional Medical Center", "city": "Palmdale" }, "geometry": { "type": "Point", "coordinates": [ -118.144784027639034, 34.583227695880964 ] } },
{ "type": "Feature", "properties": { "objectid": 61432, "name": "Kaiser Permanente Hospital-Baldwin Park", "city": "Baldwin Park" }, "geometry": { "type": "Point", "coordinates": [ -117.986452456967598, 34.065501567304345 ] } },
{ "type": "Feature", "properties": { "objectid": 61453, "name": "Kaiser Permanente Downey Medical Center", "city": "Downey" }, "geometry": { "type": "Point", "coordinates": [ -118.128948266627347, 33.919040177041509 ] } },
{ "type": "Feature", "properties": { "objectid": 61785, "name": "Casa Colina Centers for Rehabilitation", "city": "Pomona" }, "geometry": { "type": "Point", "coordinates": [ -117.746915877914333, 34.097097627308905 ] } },
{ "type": "Feature", "properties": { "objectid": 61786, "name": "Casa Colina Centers for Rehabilitation", "city": "Pomona" }, "geometry": { "type": "Point", "coordinates": [ -117.746915877914333, 34.097097627308905 ] } },
{ "type": "Feature", "properties": { "objectid": 62268, "name": "Pomona Valley Health Center - Crossroads", "city": "Chino Hills" }, "geometry": { "type": "Point", "coordinates": [ -117.737780456933123, 34.010751617399379 ] } },
{ "type": "Feature", "properties": { "objectid": 63254, "name": "City Of Long Beach Department Of Health And Human Services - West Facilities Center", "city": "Long Beach" }, "geometry": { "type": "Point", "coordinates": [ -118.2162373564923, 33.795740047452583 ] } },
{ "type": "Feature", "properties": { "objectid": 63319, "name": "Tarzana Family Medical Clinic - Lancaster", "city": "Lancaster" }, "geometry": { "type": "Point", "coordinates": [ -118.147218057604192, 34.697675545791029 ] } },
{ "type": "Feature", "properties": { "objectid": 63383, "name": "Queenscare Family Clinics - Echo Park", "city": "Los Angeles" }, "geometry": { "type": "Point", "coordinates": [ -118.280345956321071, 34.072665536471348 ] } },
{ "type": "Feature", "properties": { "objectid": 63393, "name": "Queenscare Family Clinics - East Los Angeles", "city": "Los Angeles" }, "geometry": { "type": "Point", "coordinates": [ -118.178423756232363, 34.037376456747907 ] } },
{ "type": "Feature", "properties": { "objectid": 63510, "name": "Lincoln Heights Senior Citizen Center", "city": "Lincoln Heights" }, "geometry": { "type": "Point", "coordinates": [ -118.214684896133306, 34.072592377284657 ] } },
{ "type": "Feature", "properties": { "objectid": 63750, "name": "Enki - Youth And Family Services - Margarita Mendez Center", "city": "City of Commerce" }, "geometry": { "type": "Point", "coordinates": [ -118.154663756772976, 34.017503396709095 ] } },
{ "type": "Feature", "properties": { "objectid": 63980, "name": "Mission City Community Network Inc", "city": "North Hills" }, "geometry": { "type": "Point", "coordinates": [ -118.46381345621846, 34.228101236085941 ] } },
{ "type": "Feature", "properties": { "objectid": 64078, "name": "Korean Health, Education, Information And Research Center", "city": "Los Angeles" }, "geometry": { "type": "Point", "coordinates": [ -118.30380475576014, 34.063699916989549 ] } },
{ "type": "Feature", "properties": { "objectid": 64376, "name": "Community Health Alliance Of Pasadena - Del Mar Health Center", "city": "Pasadena" }, "geometry": { "type": "Point", "coordinates": [ -118.085145456696225, 34.141048027109264 ] } },
{ "type": "Feature", "properties": { "objectid": 64413, "name": "Mission Community Hospital - San Fernando Campus For Health And Education", "city": "San Fernando" }, "geometry": { "type": "Point", "coordinates": [ -118.444495045678366, 34.276655086397845 ] } },
{ "type": "Feature", "properties": { "objectid": 64547, "name": "Urdc Human Services Corporation - Bill Moore Community Health Clinic", "city": "Pasadena" }, "geometry": { "type": "Point", "coordinates": [ -118.131606956864672, 34.171238657186265 ] } },
{ "type": "Feature", "properties": { "objectid": 64552, "name": "Urdc Human Services Corporation - Bill Moore Community Health Clinic - Monrovia", "city": "Monrovia" }, "geometry": { "type": "Point", "coordinates": [ -117.993182256552871, 34.148434076909865 ] } },
{ "type": "Feature", "properties": { "objectid": 64586, "name": "Smartclinic Urgent Care", "city": "West Covina" }, "geometry": { "type": "Point", "coordinates": [ -117.887440557430352, 34.003023817290668 ] } },
{ "type": "Feature", "properties": { "objectid": 64592, "name": "Pasadena Community Urgent Care", "city": "Pasadena" }, "geometry": { "type": "Point", "coordinates": [ -118.08514455696664, 34.141928447053502 ] } },
{ "type": "Feature", "properties": { "objectid": 64610, "name": "Palmdale Regional Medical Center", "city": "Palmdale" }, "geometry": { "type": "Point", "coordinates": [ -118.144470556744082, 34.58344867626753 ] } },
{ "type": "Feature", "properties": { "objectid": 64893, "name": "City Of Baldwin Park Department Of Recreation And Community Services - Julia McNeill Senior Center", "city": "Baldwin Park" }, "geometry": { "type": "Point", "coordinates": [ -117.963418297132421, 34.086846086654901 ] } },
{ "type": "Feature", "properties": { "objectid": 64942, "name": "Filipino-American Service Group, Inc. - Community Wellness Center", "city": "Los Angeles" }, "geometry": { "type": "Point", "coordinates": [ -118.263501656363999, 34.069696667001409 ] } },
{ "type": "Feature", "properties": { "objectid": 64989, "name": "Silver Lake Medical Center", "city": "Los Angeles" }, "geometry": { "type": "Point", "coordinates": [ -118.263459455926494, 34.069660386780342 ] } },
{ "type": "Feature", "properties": { "objectid": 65621, "name": "Dreamweaver Medical Associates", "city": "San Gabriel" }, "geometry": { "type": "Point", "coordinates": [ -118.10359175711659, 34.102267566496323 ] } },
{ "type": "Feature", "properties": { "objectid": 68050, "name": "Martin Luther King Jr. Community Hospital", "city": "Los Angeles" }, "geometry": { "type": "Point", "coordinates": [ -118.242779626636533, 33.923529907375773 ] } },
{ "type": "Feature", "properties": { "objectid": 68051, "name": "Martin Luther King Jr. Community Hospital", "city": "Los Angeles" }, "geometry": { "type": "Point", "coordinates": [ -118.242779626636533, 33.923529907375773 ] } },
{ "type": "Feature", "properties": { "objectid": 68052, "name": "Martin Luther King Jr. Community Hospital", "city": "Los Angeles" }, "geometry": { "type": "Point", "coordinates": [ -118.242779626636533, 33.923529907375773 ] } },
{ "type": "Feature", "properties": { "objectid": 71330, "name": "Kindred Hospital - Baldwin Park", "city": "Baldwin Park" }, "geometry": { "type": "Point", "coordinates": [ -117.967521057144936, 34.063032567206818 ] } },
{ "type": "Feature", "properties": { "objectid": 71331, "name": "Kindred Hospital - Baldwin Park", "city": "Baldwin Park" }, "geometry": { "type": "Point", "coordinates": [ -117.967521057144936, 34.063032567206818 ] } },
{ "type": "Feature", "properties": { "objectid": 71332, "name": "Kindred Hospital - La Mirada", "city": "La Mirada" }, "geometry": { "type": "Point", "coordinates": [ -118.013351746849082, 33.916546657241987 ] } },
{ "type": "Feature", "properties": { "objectid": 71335, "name": "College Medical Center", "city": "Long Beach" }, "geometry": { "type": "Point", "coordinates": [ -118.193030566489384, 33.807307007179347 ] } },
{ "type": "Feature", "properties": { "objectid": 71336, "name": "College Medical Center", "city": "Long Beach" }, "geometry": { "type": "Point", "coordinates": [ -118.193030566489384, 33.807307007179347 ] } },
{ "type": "Feature", "properties": { "objectid": 71337, "name": "College Medical Center", "city": "Long Beach" }, "geometry": { "type": "Point", "coordinates": [ -118.193030566489384, 33.807307007179347 ] } },
{ "type": "Feature", "properties": { "objectid": 71339, "name": "Miracle Mile Medical Center", "city": "Los Angeles" }, "geometry": { "type": "Point", "coordinates": [ -118.362449785983202, 34.057448846653109 ] } },
{ "type": "Feature", "properties": { "objectid": 71340, "name": "Miracle Mile Medical Center", "city": "Los Angeles" }, "geometry": { "type": "Point", "coordinates": [ -118.362449785983202, 34.057448846653109 ] } },
{ "type": "Feature", "properties": { "objectid": 71341, "name": "PIH Health Hospital - Downey", "city": null }, "geometry": { "type": "Point", "coordinates": [ -118.049255056795815, 33.96979426721785 ] } },
{ "type": "Feature", "properties": { "objectid": 71342, "name": "Saint Vincent Medical Center", "city": "Los Angeles" }, "geometry": { "type": "Point", "coordinates": [ -118.273654756141198, 34.06381756719933 ] } },
{ "type": "Feature", "properties": { "objectid": 71343, "name": "Saint Vincent Medical Center", "city": "Los Angeles" }, "geometry": { "type": "Point", "coordinates": [ -118.273654756141198, 34.06381756719933 ] } },
{ "type": "Feature", "properties": { "objectid": 71344, "name": "Saint Vincent Medical Center", "city": "Los Angeles" }, "geometry": { "type": "Point", "coordinates": [ -118.273654756141198, 34.06381756719933 ] } },
{ "type": "Feature", "properties": { "objectid": 71345, "name": "San Dimas Community Hospital", "city": "San Dimas" }, "geometry": { "type": "Point", "coordinates": [ -117.834659357074514, 34.097611867065929 ] } },
{ "type": "Feature", "properties": { "objectid": 71346, "name": "San Dimas Community Hospital", "city": "San Dimas" }, "geometry": { "type": "Point", "coordinates": [ -117.834659357074514, 34.097611867065929 ] } },
{ "type": "Feature", "properties": { "objectid": 71347, "name": "San Dimas Community Hospital", "city": "San Dimas" }, "geometry": { "type": "Point", "coordinates": [ -117.834659357074514, 34.097611867065929 ] } },
{ "type": "Feature", "properties": { "objectid": 71348, "name": "Southern California Hospital at Culver City", "city": "Culver City" }, "geometry": { "type": "Point", "coordinates": [ -118.396942956519538, 34.023195266424466 ] } },
{ "type": "Feature", "properties": { "objectid": 71349, "name": "Southern California Hospital at Culver City", "city": "Culver City" }, "geometry": { "type": "Point", "coordinates": [ -118.396942956519538, 34.023195266424466 ] } },
{ "type": "Feature", "properties": { "objectid": 71350, "name": "Southern California Hospital at Culver City", "city": "Culver City" }, "geometry": { "type": "Point", "coordinates": [ -118.396942956519538, 34.023195266424466 ] } },
{ "type": "Feature", "properties": { "objectid": 71351, "name": "Southern California Hospital at Hollywood", "city": "Hollywood" }, "geometry": { "type": "Point", "coordinates": [ -118.325143955895626, 34.096445166421027 ] } },
{ "type": "Feature", "properties": { "objectid": 71352, "name": "Southern California Hospital at Hollywood", "city": "Hollywood" }, "geometry": { "type": "Point", "coordinates": [ -118.325143955895626, 34.096445166421027 ] } }
]
}
